City_ID,City,Lat,Lng,Max Temp,Humidity,Cloudiness,Wind Speed,Country,Date
0,papatowai,-46.5619,169.4708,14.52,66,57,4.46,NZ,1735530924
1,christchurch,-43.5333,172.6333,16.11,76,100,10.29,NZ,1735530925
2,punta arenas,-53.15,-70.9167,14.06,72,0,3.6,CL,1735530644
3,drahichyn,52.1874,25.1597,-0.78,83,14,4.58,BY,1735530927
4,mata-utu,-13.2816,-176.1745,28.58,72,96,3.32,WF,1735530929
5,longyearbyen,78.2186,15.6401,-15.09,72,20,5.14,SJ,1735530930
6,bredasdorp,-34.5322,20.0403,17.64,86,41,0.53,ZA,1735530931
7,west island,-12.1568,96.8225,29.99,70,20,6.17,CC,1735530932
8,tolanaro,-25.0319,46.9987,27.04,69,20,4.12,MG,1735530933
9,kenai,60.5544,-151.2583,-9.97,92,0,3.09,US,1735530935
10,blackmans bay,-43.0167,147.3167,22.51,60,100,0.45,AU,1735530936
11,saipan,15.1355,145.701,31.39,62,40,8.75,MP,1735530937
12,marsh harbour,26.5412,-77.0636,23.42,72,100,6.33,BS,1735530938
13,margaret river,-33.95,115.0667,23.56,45,14,6.18,AU,1735530940
14,grytviken,-54.2811,-36.5092,2.11,72,3,4.28,GS,1735530941
15,enewetak,11.3474,162.3373,27.2,79,65,9.78,MH,1735530942
16,glendive,47.1053,-104.7125,1.79,80,100,2.06,US,1735530944
17,ushuaia,-54.8,-68.3,11.81,66,20,3.6,AR,1735530945
18,puerto ayora,-0.7393,-90.3518,23.64,97,19,2.61,EC,1735530946
19,katsuren-haebaru,26.3369,127.8719,22.01,52,100,1.54,JP,1735530947
20,manaure,11.7751,-72.4445,25.86,87,58,5.14,CO,1735530887
21,sandnessjoen,66.0217,12.6316,0.72,66,100,15.17,NO,1735530950
22,yellowknife,62.456,-114.3525,-8.71,100,100,4.63,CA,1735530736
23,funafuti,-8.5243,179.1942,32.0,66,20,2.57,TV,1735530954
24,kokopo,-4.352,152.2633,30.47,61,96,4.13,PG,1735530955
25,edinburgh of the seven seas,-37.0676,-12.3116,15.62,74,100,9.14,SH,1735530956
26,mangrol,21.1167,70.1167,20.15,55,0,3.8,IN,1735530957
27,uturoa,-16.7333,-151.4333,27.69,72,73,3.51,PF,1735530958
28,mandal,25.45,74.5667,13.71,47,0,1.35,IN,1735530962
29,iqaluit,63.7506,-68.5145,-22.15,64,0,2.06,CA,1735530963
30,tura,25.5198,90.2201,22.87,39,0,1.28,IN,1735530964
31,port mathurin,-19.6833,63.4167,25.7,68,83,7.58,MU,1735530965
32,port-aux-francais,-49.35,70.2167,4.52,71,81,8.32,TF,1735530967
33,huarmey,-10.0681,-78.1522,20.38,87,97,3.39,PE,1735530968
34,isafjordur,66.0755,-23.124,-7.82,90,100,3.86,IS,1735530954
35,kabinda,-6.1333,24.4833,18.95,95,98,0.45,CD,1735530970
36,whitehorse,60.7161,-135.0538,-8.57,92,100,3.09,CA,1735530804
37,port elizabeth,-33.918,25.5701,23.51,99,75,5.66,ZA,1735530973
38,marakkanam,12.2,79.95,26.14,79,100,7.65,IN,1735530974
39,bethel,41.3712,-73.414,13.05,89,100,3.09,US,1735530975
40,wailua homesteads,22.0669,-159.378,22.44,87,75,5.66,US,1735530976
41,prince rupert,54.3161,-130.3201,4.83,81,100,1.54,CA,1735530978
42,zag,46.9441,99.165,-23.76,84,80,0.87,MN,1735530979
43,ponta delgada,37.7333,-25.6667,18.44,88,20,5.14,PT,1735530980
44,petawawa,45.9001,-77.3328,2.66,96,100,1.79,CA,1735530981
45,carauari,-4.8828,-66.8958,22.76,99,100,1.09,BR,1735530983
46,keflavik,64.0049,-22.5624,-4.76,93,100,9.77,IS,1735530984
47,haiku-pauwela,20.9219,-156.3051,24.01,70,13,3.58,US,1735530985
48,albany,42.6001,-73.9662,13.12,92,100,2.68,US,1735530690
49,olonkinbyen,70.9221,-8.7187,-9.66,73,100,8.9,SJ,1735530987
50,happy valley-goose bay,53.3168,-60.3315,-3.83,93,100,1.54,CA,1735530989
51,thompson,55.7435,-97.8558,-3.91,100,100,1.03,CA,1735530990
52,hawaiian paradise park,19.5933,-154.9731,22.72,85,1,2.76,US,1735530991
53,adamstown,-25.066,-130.1015,24.51,86,100,7.05,PN,1735530992
54,kattivakkam,13.2167,80.3167,27.2,72,100,7.22,IN,1735530994
55,georgetown,5.4112,100.3354,31.96,55,20,5.14,MY,1735530987
56,batroun,34.2553,35.6581,11.99,79,81,3.43,LB,1735530996
57,selfoss,63.9331,-20.9971,-12.17,82,78,3.25,IS,1735530997
58,robertsport,6.7533,-11.3686,25.58,86,22,2.16,LR,1735530999
59,gisborne,-38.6533,178.0042,18.17,87,68,6.79,NZ,1735531000
60,qulsary,46.9531,54.0198,-4.01,83,82,2.66,KZ,1735531001
61,kratie,12.4881,106.0188,30.26,43,40,5.74,KH,1735531004
62,waitangi,-43.9535,-176.5597,15.46,95,100,2.24,NZ,1735531005
63,bougouni,11.417,-7.479,19.47,23,10,2.57,ML,1735531006
64,palm beach,26.6503,-80.4498,21.68,96,100,2.48,US,1735531008
65,songyuan,45.1171,124.8568,-10.63,85,94,4.34,CN,1735531010
66,hamilton,39.1834,-84.5333,7.69,83,75,6.17,US,1735530785
67,buka,40.8108,69.1986,4.36,84,62,1.46,UZ,1735531012
68,afaahiti,-17.75,-149.2833,26.84,70,96,2.58,PF,1735531013
69,vernon,50.2581,-119.2691,2.09,91,100,0.51,CA,1735530866
70,alupka,44.4167,34.05,5.44,83,58,0.41,UA,1735531016
71,badger,64.8,-147.5333,-30.0,73,0,0.0,US,1735531017
72,fort st. john,56.2499,-120.8529,-12.06,85,100,5.14,CA,1735531018
73,college,64.8569,-147.8028,-29.95,97,7,1.7,US,1735531020
74,novyy urengoy,66.0833,76.6333,-18.39,99,83,3.43,RU,1735531021
75,ust-nera,64.5667,143.2,-31.39,99,100,0.93,RU,1735531022
76,osmanabad,18.1667,76.05,24.05,49,0,3.26,IN,1735531023
77,leh,34.1667,77.5833,-16.35,75,22,0.62,IN,1735531025
78,jamestown,42.097,-79.2353,12.8,79,100,7.6,US,1735531026
79,stanley,54.868,-1.6985,9.01,80,75,9.77,GB,1735531027
80,ust'-ilimsk,58.0006,102.6619,-8.41,92,100,4.15,RU,1735531028
81,jacutinga,-22.2856,-46.6122,17.52,95,50,2.26,BR,1735530993
82,lake havasu city,34.4839,-114.3224,19.0,26,0,4.63,US,1735530910
83,barra dos coqueiros,-10.9089,-37.0386,26.01,78,20,3.6,BR,1735531032
84,jhawarian,32.3614,72.6228,14.73,28,8,0.98,PK,1735531033
85,avarua,-21.2078,-159.775,28.03,83,75,2.57,CK,1735531035
86,nuuk,64.1835,-51.7216,-7.66,67,0,2.57,GL,1735531036
87,clinton,42.587,-82.9199,6.94,91,100,5.14,US,1735531034
88,belyy yar,53.6039,91.3903,-7.06,79,0,6.0,RU,1735531038
89,hermanus,-34.4187,19.2345,18.2,84,16,1.15,ZA,1735531039
90,san fernando,15.0286,120.6898,24.85,60,69,7.33,PH,1735531041
91,tiksi,71.6872,128.8694,-33.75,98,45,1.31,RU,1735531042
92,port alfred,-33.5906,26.891,23.82,91,75,6.59,ZA,1735531043
93,leticia,-4.2153,-69.9406,24.03,100,75,1.54,CO,1735531044
94,puerto natales,-51.7236,-72.4875,11.56,92,100,1.84,CL,1735531046
95,alice springs,-23.7,133.8833,35.75,11,0,3.6,AU,1735530768
96,dankov,53.2515,39.1555,1.28,89,100,6.38,RU,1735531049
97,bodo,67.28,14.405,1.02,86,100,21.61,NO,1735530814
98,leer,53.2316,7.461,6.64,100,100,7.76,DE,1735531053
99,vinhais,41.8351,-7.005,1.11,74,0,1.7,PT,1735531054
100,umluj,25.0213,37.2685,17.78,52,100,4.61,SA,1735531055
101,coronel dorrego,-38.7187,-61.2873,18.54,83,49,3.37,AR,1735531056
102,wanning,18.8003,110.3967,23.45,61,84,4.17,CN,1735531058
103,nuoro,40.3211,9.3297,5.36,61,0,1.25,IT,1735531059
104,la passe,45.5549,-0.8967,3.83,92,6,2.82,FR,1735531060
105,mongoumba,3.6415,18.5936,21.39,54,27,1.7,CF,1735531061
106,vila velha,-20.3297,-40.2925,22.97,96,100,2.06,BR,1735531063
107,remire-montjoly,4.9167,-52.2667,24.02,100,0,0.0,GF,1735531064
108,harar,9.3094,42.1258,11.25,65,64,4.24,ET,1735531065
109,castillos,-34.1667,-53.8333,15.14,79,2,1.8,UY,1735531066
110,gangapur,26.4833,76.7167,14.78,50,0,0.67,IN,1735531068
111,berezovo,63.9381,65.0419,-11.52,96,50,3.98,RU,1735531069
112,phang nga,8.4509,98.5298,29.72,59,99,3.31,TH,1735531070
113,mejit,10.2753,170.8646,27.27,77,96,8.45,MH,1735531071
114,iskateley,67.6803,53.1512,-3.18,95,100,10.12,RU,1735531072
115,nakhon nayok,14.1667,101.1,28.34,45,38,0.87,TH,1735531074
116,galle,6.0367,80.217,28.29,83,66,3.77,LK,1735531075
117,vadso,70.0744,29.7487,-0.91,80,75,6.69,NO,1735531076
118,afzalgarh,29.4,78.6833,15.95,61,5,1.01,IN,1735531077
119,chhala,23.3,72.7667,14.78,32,0,5.65,IN,1735531079
120,paramonga,-10.6667,-77.8333,20.14,89,99,3.03,PE,1735531080
121,carnarvon,-24.8667,113.6333,29.92,53,30,3.58,AU,1735531081
122,jerome,42.7241,-114.5186,3.71,86,100,5.14,US,1735531082
123,jolo,6.05,121.0167,29.86,70,100,3.14,PH,1735531085
124,guaratinga,-16.5667,-39.5667,21.94,96,98,1.39,BR,1735531086
125,hadibu,12.65,54.0333,23.25,66,63,5.09,YE,1735531087
126,san antonio de pale,-1.4014,5.6325,27.21,76,100,2.54,GQ,1735531088
127,colonia,50.9333,6.95,1.09,93,100,3.6,DE,1735530836
128,kuta,-8.7233,115.1723,29.97,74,20,5.66,ID,1735531091
129,howard springs,-12.497,131.047,32.95,64,79,2.49,AU,1735531092
130,ratnagiri,16.9833,73.3,27.66,43,0,2.24,IN,1735531093
131,strelka,58.0728,93.0344,-9.34,95,99,2.29,RU,1735531095
132,sukhinichi,54.0999,35.3425,0.56,97,100,5.24,RU,1735531096
133,gillette,44.2911,-105.5022,2.51,83,100,1.79,US,1735531097
134,farasan,16.7022,42.1183,26.32,73,2,2.5,SA,1735531098
135,yuzhno-kurilsk,44.0306,145.8556,-4.27,64,100,8.85,RU,1735531099
136,olyokminsk,60.3736,120.4264,-22.35,97,99,0.53,RU,1735531101
137,sungai penuh,-2.0833,101.3833,26.56,56,70,2.9,ID,1735531102
138,mont-dore,-22.2833,166.5833,24.78,67,74,5.35,NC,1735531104
139,alo,6.5486,4.2686,24.76,90,96,0.85,NG,1735531106
140,kodiak,57.79,-152.4072,0.73,86,100,0.0,US,1735531107
141,laghouat,33.8,2.8651,3.91,82,20,1.09,DZ,1735531074
142,east london,-33.0153,27.9116,23.52,94,75,2.57,ZA,1735530913
143,lebu,-37.6167,-73.65,11.94,100,60,4.48,CL,1735531111
144,ixtapa,20.7,-105.2,20.68,81,0,1.03,MX,1735531112
145,kamiiso,41.8167,140.65,0.21,55,40,6.69,JP,1735531113
146,mogocha,53.7333,119.7667,-17.65,85,32,0.43,RU,1735531114
147,tuban,-6.8976,112.0649,29.79,68,58,3.15,ID,1735531115
148,saint-pierre,-21.3393,55.4781,28.82,70,17,2.06,RE,1735531118
149,sungai besar,3.6746,100.9867,25.41,87,100,0.36,MY,1735531119
150,villamontes,-21.25,-63.5,22.64,46,54,0.72,BO,1735531121
151,qaqortoq,60.7167,-46.0333,-16.11,60,0,3.08,GL,1735531122
152,la rioja,42.25,-2.5,-0.12,50,0,2.33,ES,1735531123
153,itoman,26.1247,127.6694,22.01,49,75,1.03,JP,1735531124
154,watsa,3.0372,29.5355,16.07,50,40,1.26,CD,1735531125
155,kirakira,-10.4544,161.9205,28.34,75,100,1.29,SB,1735531127
156,shemysheyka,52.892,45.3928,-15.1,99,99,2.16,RU,1735531128
157,bathsheba,13.2167,-59.5167,25.34,78,40,4.12,BB,1735531130
158,bayanhongor,46.7167,100.1167,-20.75,70,97,0.13,MN,1735531132
159,dakhla,23.6848,-15.958,17.56,41,0,7.57,EH,1735531133
160,hithadhoo,-0.6,73.0833,26.78,72,91,4.5,MV,1735531134
161,polyarnyy,69.1989,33.4478,-4.87,87,89,6.57,RU,1735531135
162,nuku'alofa,-21.1333,-175.2,28.19,65,40,5.66,TO,1735531090
163,ilhabela,-23.7781,-45.3581,23.08,91,87,2.53,BR,1735531138
164,hilo,19.7297,-155.09,22.84,86,1,1.62,US,1735531139
165,ghat,24.9647,10.1728,9.52,43,100,1.79,LY,1735531140
166,at taj,24.2049,23.2857,8.66,58,100,3.51,LY,1735531141
167,bilibino,68.0546,166.4372,-32.06,76,48,2.8,RU,1735531143
168,knysna,-34.0363,23.0471,20.83,94,53,1.44,ZA,1735531144
169,fuyu,45.1833,124.8167,-10.8,86,94,4.32,CN,1735531145
170,trincomalee,8.5711,81.2335,26.71,80,87,4.15,LK,1735531148
171,aasiaat,68.7098,-52.8699,-23.95,90,34,2.65,GL,1735531149
172,invercargill,-46.4,168.35,16.68,61,96,4.47,NZ,1735531150
173,lospalos,-8.5186,127.0025,28.12,70,100,0.57,TL,1735531151
174,turkmenbasy,40.0222,52.9552,6.43,87,75,2.06,TM,1735531153
175,utrik,11.2278,169.8474,26.96,78,49,8.56,MH,1735531154
176,devils lake,48.1128,-98.8651,-7.01,93,0,3.6,US,1735531155
177,launceston,-41.45,147.1667,20.8,68,100,8.75,AU,1735531156
178,susanville,40.4163,-120.653,2.91,89,0,4.63,US,1735531158
179,dampit,-8.2116,112.7493,29.38,63,22,2.99,ID,1735530863
180,paragominas,-2.9667,-47.4833,22.69,99,100,0.89,BR,1735531160
181,totskoye,52.5248,52.7623,-11.44,98,100,0.69,RU,1735531161
182,tsiombe,-25.3,45.4833,28.8,58,0,2.54,MG,1735531162
183,qaryat suluq,31.6682,20.2521,11.0,79,10,0.43,LY,1735531164
184,el calafate,-50.3408,-72.2768,15.84,62,100,3.01,AR,1735531165
185,kapuskasing,49.4169,-82.4331,1.0,100,100,2.57,CA,1735531166
186,lepsy,46.235,78.9456,-5.57,79,100,1.0,KZ,1735531167
187,kokuy,52.2037,117.5529,-18.58,96,100,1.23,RU,1735531169
188,tisul',55.7611,88.3122,-7.06,84,98,5.8,RU,1735531170
189,paphos,34.7667,32.4167,8.88,100,40,3.09,CY,1735530896
190,saldanha,-33.0117,17.9442,17.03,91,1,4.77,ZA,1735531172
191,olinda,-8.0089,-34.8553,27.85,74,75,5.14,BR,1735530948
192,port lincoln,-34.7333,135.8667,24.25,50,93,4.98,AU,1735531175
193,san patricio,28.017,-97.5169,18.39,64,0,3.47,US,1735531176
194,zhezqazghan,47.7833,67.7667,-7.68,93,40,3.0,KZ,1735531177
195,mount gambier,-37.8333,140.7667,22.94,47,100,5.46,AU,1735531178
196,pahrump,36.2083,-115.9839,15.29,37,2,3.58,US,1735530885
197,dryden,49.7833,-92.7503,-2.84,93,100,2.57,CA,1735531181
198,inhambane,-23.865,35.3833,26.58,73,6,1.84,MZ,1735531182
199,yafran,32.0633,12.5286,8.7,94,26,0.74,LY,1735531183
200,ceeldheer,3.8488,47.1806,24.23,77,44,8.1,SO,1735531185
201,envira,-7.3,-70.2167,22.24,96,100,0.84,BR,1735531186
202,dunedin,-45.8742,170.5036,13.86,74,45,7.01,NZ,1735531187
203,gadzhiyevo,69.2551,33.3362,-5.57,89,90,6.41,RU,1735531188
204,mount pearl,47.5166,-52.7813,-0.97,94,75,1.54,CA,1735531191
205,nabire,-3.3667,135.4833,29.11,69,100,1.22,ID,1735531192
206,mahendranagar,28.9167,80.3333,18.53,46,0,0.65,NP,1735531194
207,chornukhyne,48.3278,38.5019,-2.78,77,36,1.82,UA,1735531195
208,dudinka,69.4058,86.1778,-14.71,96,99,4.03,RU,1735531196
209,kindu,-2.95,25.95,21.37,96,99,0.76,CD,1735531197
210,flying fish cove,-10.4217,105.6791,26.82,83,100,3.6,CX,1735531198
211,tazovsky,67.4667,78.7,-23.09,100,92,2.56,RU,1735531200
212,kalininsk,51.5,44.4758,-17.1,99,47,1.61,RU,1735531202
213,harstad,68.799,16.5293,2.53,78,100,9.62,NO,1735531203
214,sagua la grande,22.8067,-80.0756,22.21,88,100,2.4,CU,1735531205
215,newman,37.3138,-121.0208,11.7,90,55,0.89,US,1735531206
216,coahuayana de hidalgo,18.7,-103.6583,19.83,85,0,1.78,MX,1735531207
217,kananga,-5.8958,22.4178,19.64,98,95,0.58,CD,1735531208
218,vorgashor,67.5833,63.95,-7.83,95,99,5.6,RU,1735531210
219,ilulissat,69.2167,-51.1,-10.99,44,5,1.54,GL,1735531211
220,port-cartier,50.0334,-66.8654,-0.27,99,100,1.91,CA,1735531212
221,nelson bay,-32.7167,152.15,23.73,67,0,6.18,AU,1735531214
222,talnakh,69.4865,88.3972,-17.04,97,100,3.32,RU,1735531215
223,usogorsk,63.4106,48.6872,-0.89,96,100,6.1,RU,1735531216
224,pacific grove,36.6177,-121.9166,13.06,94,75,5.81,US,1735531217
225,mount isa,-20.7333,139.5,38.87,8,0,7.2,AU,1735531218
226,tamanrasset,22.785,5.5228,10.95,22,0,3.09,DZ,1735531220
227,cole harbour,44.6724,-63.4751,3.17,96,100,0.51,CA,1735531221
228,biloela,-24.4167,150.5,30.52,49,100,3.45,AU,1735531222
229,laguna,38.421,-121.4238,12.08,86,10,1.34,US,1735531223
230,taseyevo,57.2169,94.8978,-8.05,92,100,2.65,RU,1735531225
231,acajutla,13.5928,-89.8275,24.91,87,94,3.08,SV,1735531226
232,gimbi,9.1667,35.8333,12.47,62,0,0.66,ET,1735531227
233,petropavl,54.8753,69.1628,-11.01,92,75,2.0,KZ,1735531229
234,north bend,43.4065,-124.2243,6.95,93,0,3.6,US,1735531230
235,solana beach,32.9912,-117.2711,13.19,91,61,0.45,US,1735531231
236,lihue,21.9789,-159.3672,22.77,83,75,5.66,US,1735531018
237,peace river,56.2501,-117.286,-6.83,93,100,1.54,CA,1735531233
238,cadale,2.7603,46.3222,24.78,80,68,8.87,SO,1735531236
239,kuusamo,65.9667,29.1833,-1.98,80,100,6.69,FI,1735531237
240,talachyn,54.4097,29.6917,1.38,89,82,4.8,BY,1735531238
241,mil'kovo,55.6078,37.7956,1.3,69,100,5.02,RU,1735531240
242,woolgoolga,-30.1106,153.2007,26.93,64,13,5.64,AU,1735531241
243,motueka,-41.1333,173.0167,18.17,88,63,4.68,NZ,1735531242
244,brechin,56.7299,-2.6573,9.53,81,100,8.19,GB,1735531244
245,juliaca,-15.5,-70.1333,7.78,78,100,0.5,PE,1735531245
246,zhanibek,49.4167,46.85,-6.3,99,86,1.44,KZ,1735531246
247,tortoli,39.9256,9.6572,12.3,71,0,3.6,IT,1735531247
248,nar'yan-mar,67.6713,53.087,-3.2,95,100,10.11,RU,1735531249
249,montmagny,48.9734,2.3469,5.27,92,100,1.54,FR,1735531250
250,natal,-5.795,-35.2094,26.12,83,20,3.6,BR,1735531143
251,pontianak,-0.0333,109.3333,30.99,70,40,2.57,ID,1735531252
252,tangalle,6.024,80.7911,28.56,72,81,1.2,LK,1735531254
253,sisimiut,66.9395,-53.6735,-12.98,63,0,4.38,GL,1735531255
254,udachny,66.4167,112.4,-37.64,100,83,1.81,RU,1735531256
255,chonchi,-42.6128,-73.8092,13.4,72,100,0.9,CL,1735531257
256,ancud,-41.8697,-73.8203,12.54,83,100,1.99,CL,1735531259
257,yorkton,51.2167,-102.4677,-14.09,92,78,1.03,CA,1735531202
258,cockburn town,21.4612,-71.1419,24.5,58,87,5.62,TC,1735531261
259,hasaki,35.7333,140.8333,9.22,38,100,0.46,JP,1735531262
260,dubbo,-32.25,148.6167,33.07,25,75,1.54,AU,1735531263
261,qarazhal,48.0078,70.7903,-4.46,90,100,3.31,KZ,1735531265
262,alotau,-10.3069,150.4462,27.31,89,100,1.9,PG,1735531266
263,arraial do cabo,-22.9661,-42.0278,23.38,92,100,3.25,BR,1735531267
264,gorazde,43.6669,18.9764,-1.15,99,58,0.28,BA,1735531268
265,dhuusamarreeb,5.535,46.3861,21.02,77,17,6.83,SO,1735531270
266,bubaque,11.2833,-15.8333,25.97,71,2,2.82,GW,1735531271
267,westport,41.1415,-73.3579,14.07,87,100,2.68,US,1735531203
268,fiambala,-27.6871,-67.6149,24.42,37,45,2.1,AR,1735531273
269,cotonou,6.3654,2.4183,27.99,83,40,2.57,BJ,1735531275
270,maracaibo,10.6317,-71.6406,26.08,74,94,3.66,VE,1735531254
271,arica,-18.475,-70.3042,20.13,73,100,3.09,CL,1735531208
272,ribeira grande,38.5167,-28.7,18.21,86,68,9.83,PT,1735531278
273,zarqa,32.0728,36.088,8.95,81,75,2.06,JO,1735531280
274,arawa,-6.2132,155.5367,31.29,62,13,2.18,PG,1735531282
275,lazarevskoye,43.9061,39.3331,8.52,84,100,3.34,RU,1735531283
276,kingston,17.997,-76.7936,25.53,83,75,2.57,JM,1735531284
277,pyt-yakh,60.7499,72.8582,-14.35,98,76,2.52,RU,1735531286
278,aksu,41.1231,80.2644,-8.57,77,100,1.09,CN,1735531287
279,priozersk,61.0393,30.1291,4.49,91,87,8.53,RU,1735531289
280,cabo san lucas,22.8909,-109.9124,18.06,70,0,1.1,MX,1735531290
281,nadym,65.5333,72.5167,-18.78,100,100,3.2,RU,1735531292
282,anadyr,64.75,177.4833,-7.72,62,100,12.0,RU,1735531294
283,la quiaca,-22.1024,-65.593,10.94,64,96,4.93,AR,1735531296
284,kasongo-lunda,-6.4667,16.8167,20.03,98,87,0.13,CD,1735531297
285,maun,-19.9833,23.4167,22.98,100,0,2.06,BW,1735531298
286,baldivis,-32.3299,115.8218,31.12,36,0,0.89,AU,1735531300
287,trevelin,-43.0858,-71.4639,15.31,51,100,2.48,AR,1735531301
288,ardakan,32.31,54.0175,6.84,62,90,0.45,IR,1735531302
289,brookings,44.3114,-96.7984,1.77,86,0,0.0,US,1735531303
290,ankazoabo,-22.2833,44.5167,24.34,74,5,1.3,MG,1735531305
291,nova sintra,14.8667,-24.7167,25.28,77,96,7.68,CV,1735531306
292,malangali,-8.5667,34.85,17.3,88,100,1.41,TZ,1735531307
293,constitucion,-35.3333,-72.4167,12.94,79,3,3.29,CL,1735531209
294,noyabrsk,63.1994,75.4507,-15.84,99,96,3.89,RU,1735531311
295,dukhan,25.4297,50.7858,18.23,91,81,2.55,QA,1735531312
296,souillac,-20.5167,57.5167,26.21,94,40,0.0,MU,1735531313
297,buta,2.7858,24.73,20.01,54,95,1.06,CD,1735531315
298,atafu village,-8.5421,-172.5159,28.24,72,38,2.62,TK,1735531316
299,island harbour,50.724,-1.2758,8.88,71,92,1.34,GB,1735531317
300,karamay,45.6004,84.8661,-10.25,77,100,0.98,CN,1735531318
301,abepura,-2.6333,140.5833,30.45,70,20,3.09,ID,1735531320
302,agat village,13.3886,144.6585,29.64,81,99,2.24,GU,1735531321
303,laminusa,5.5549,120.9136,28.43,74,100,3.46,PH,1735531322
304,kuqa,41.7278,82.9364,-9.91,76,100,0.38,CN,1735531323
305,robinson,31.4677,-97.1147,14.35,94,0,4.63,US,1735531324
306,san andres,12.5847,-81.7006,28.01,78,20,1.54,CO,1735531212
307,jala,21.0833,-104.4333,13.83,68,0,0.29,MX,1735531327
308,arar,30.9753,41.0381,5.01,45,0,0.0,SA,1735531328
309,phan rang-thap cham,11.5667,108.9833,27.3,67,93,4.35,VN,1735531329
310,codrington,-38.2667,141.9667,22.66,59,100,9.21,AU,1735531331
311,kwadukuza,-29.3282,31.2895,23.05,90,2,1.33,ZA,1735531332
312,xining,36.6167,101.7667,-6.95,68,64,1.24,CN,1735531333
313,mabamba,-3.5983,30.5019,17.06,83,84,0.72,TZ,1735531334
314,new plymouth,-39.0667,174.0833,19.06,100,0,8.92,NZ,1735531336
315,atbasar,51.8,68.3333,-19.53,100,99,2.07,KZ,1735531338
316,new norfolk,-42.7826,147.0587,23.17,50,100,3.77,AU,1735531341
317,plastun,44.7561,136.2939,-7.95,40,100,0.42,RU,1735531342
318,dwarka,22.2394,68.9678,20.92,50,0,5.27,IN,1735531343
319,al ghayzah,16.2079,52.176,20.52,69,25,2.48,YE,1735531344
320,gobabis,-22.45,18.9667,23.22,57,100,1.38,NA,1735531346
321,sitka,57.0531,-135.33,1.01,88,20,1.71,US,1735531347
322,sarykemer,43.0,71.5,1.71,67,100,2.38,KZ,1735531348
323,urangan,-25.3,152.9,26.63,68,44,3.57,AU,1735531349
324,punata,-17.55,-65.8333,15.63,67,100,0.58,BO,1735531351
325,fagaras,45.85,24.9667,0.55,79,14,0.9,RO,1735531353
326,kyabe,9.4515,18.9449,24.19,24,9,3.38,TD,1735531354
327,arkhangel'sk,64.5401,40.5433,2.06,93,100,5.0,RU,1735531356
328,vicuna mackenna,-33.9197,-64.3922,19.64,56,100,3.4,AR,1735531357
329,berdigestyakh,62.0989,126.6992,-40.88,100,79,1.02,RU,1735531358
330,anuradhapura,8.3565,80.4173,27.24,78,65,3.81,LK,1735531359
331,gorontalo,0.5412,123.0595,32.92,55,52,2.25,ID,1735531360
332,lionel town,17.8101,-77.2406,23.38,92,85,1.9,JM,1735531362
333,pamandzi,-12.7967,45.2794,27.88,83,40,2.57,YT,1735531363
334,kargopol',61.5071,38.9456,1.68,93,100,4.55,RU,1735531364
335,rio grande,-32.035,-52.0986,20.41,67,33,4.35,BR,1735531365
336,novodvinsk,64.4165,40.8122,1.86,82,99,4.73,RU,1735531367
337,taulaga,-11.0553,-171.0883,28.74,65,94,0.99,AS,1735531368
338,fada,7.25,4.0667,21.11,96,59,0.89,NG,1735531369
339,sao tome,0.3365,6.7273,26.75,83,100,3.53,ST,1735531370
340,cidreira,-30.1811,-50.2056,21.02,82,100,4.43,BR,1735531371
341,vilyuysk,63.7553,121.6247,-37.83,99,98,1.65,RU,1735531373
342,rongelap,11.1635,166.8941,27.49,72,94,9.07,MH,1735531374
343,kenora,49.8167,-94.4337,-3.46,100,100,3.09,CA,1735531375
344,kargasok,59.0556,80.8572,-8.71,94,98,4.43,RU,1735531376
345,kone,-21.0595,164.8658,28.66,50,64,4.52,NC,1735531378
346,madison heights,42.4859,-83.1052,6.61,94,100,6.69,US,1735531379
347,sultanah,24.4926,39.5857,15.25,18,0,0.0,SA,1735531380
348,porto velho,-8.7619,-63.9039,24.03,94,75,1.54,BR,1735531214
349,naze,28.3667,129.4833,17.51,58,57,1.46,JP,1735531383
350,posse,-14.0931,-46.3694,20.51,87,98,1.8,BR,1735531384
351,queenstown,-31.8976,26.8753,19.92,83,34,0.44,ZA,1735531385
352,nagqu,31.5,92.0,-8.03,27,56,3.3,CN,1735531386
353,dawson creek,55.7666,-120.2362,-11.2,85,100,5.66,CA,1735531388
354,canutama,-6.5339,-64.3831,22.92,96,82,0.79,BR,1735531369
355,fort-shevchenko,44.5086,50.263,2.99,78,100,4.16,KZ,1735531390
356,vanimo,-2.6741,141.3028,30.17,70,99,2.22,PG,1735531391
357,ladysmith,48.9829,-123.8194,5.51,98,20,1.03,CA,1735531392
358,hollymead,38.1171,-78.4417,14.42,89,100,5.14,US,1735531394
359,kuanda,56.3161,116.0806,-18.85,96,100,0.1,RU,1735531395
360,vilyuchinsk,52.9306,158.4028,-0.85,77,65,5.09,RU,1735531396
361,luderitz,-26.6481,15.1594,15.79,84,23,2.15,NA,1735531397
362,sabrum,23.0,91.7319,25.9,36,0,2.11,IN,1735531399
363,eregli,37.5133,34.0467,3.21,92,100,0.77,TR,1735531400
364,touros,-5.1989,-35.4608,26.28,80,5,5.72,BR,1735531401
365,hailey,43.5196,-114.3153,-8.23,88,89,3.0,US,1735531402
366,chibougamau,49.9168,-74.3659,0.79,100,100,4.12,CA,1735531339
367,espinosa,-14.9261,-42.8192,21.04,79,100,2.07,BR,1735531405
368,nantong,32.0303,120.8747,9.54,43,0,3.26,CN,1735531406
369,orapa,-21.2833,25.3667,22.74,76,100,2.78,BW,1735531407
370,zayed city,24.3768,54.589,21.11,82,67,1.54,AE,1735531409
371,sinabang,2.4803,96.3801,28.43,72,99,1.56,ID,1735531410
372,flin flon,54.7682,-101.865,-10.69,98,94,1.42,CA,1735531411
373,tacna,-18.0056,-70.2483,17.11,77,100,3.6,PE,1735531339
374,yuanping,38.7153,112.7575,0.2,26,26,6.41,CN,1735531414
375,wenshui,28.4506,106.5267,2.8,96,100,0.72,CN,1735531415
376,le grau-du-roi,43.5388,4.1356,-1.01,93,0,1.03,FR,1735531416
377,al kut,32.5147,45.819,12.08,49,0,3.33,IQ,1735531418
378,kourou,5.1552,-52.6478,24.09,94,93,1.41,GF,1735531419
379,palikir - national government center,6.9248,158.1611,27.95,71,69,9.75,FM,1735531420
380,sao joao da barra,-21.6403,-41.0511,22.29,94,100,4.68,BR,1735531316
381,kayangel,8.0823,134.7173,28.64,77,100,6.98,PW,1735531423
382,papao,-17.75,-149.55,28.82,70,77,3.86,PF,1735531424
383,lompoc,34.6391,-120.4579,14.45,88,100,4.47,US,1735531425
384,itupiranga,-5.1347,-49.3267,23.26,97,100,1.87,BR,1735531426
385,constantia,44.1833,28.65,0.39,86,68,3.45,RO,1735531255
386,omutinskiy,56.4745,67.6709,-14.73,98,75,3.2,RU,1735531429
387,aykhal,66.0,111.5,-26.86,100,100,2.41,RU,1735531397
388,usinsk,65.9939,57.5281,-4.02,91,100,11.72,RU,1735531431
389,san felipe,10.3399,-68.7425,21.4,94,100,1.32,VE,1735531432
390,tursunzoda,38.5144,68.2333,8.72,62,100,2.56,TJ,1735531434
391,provins,48.5833,3.1667,2.36,94,35,1.48,FR,1735531435
392,aktanysh,55.7216,54.0829,-9.88,98,98,2.33,RU,1735531436
393,adzope,6.1069,-3.8619,22.64,97,1,0.75,CI,1735531437
394,coronel suarez,-37.4547,-61.9334,20.21,42,36,3.19,AR,1735531439
395,karagandy,49.8019,73.1021,-7.03,96,100,2.51,KZ,1735531231
396,coron,11.9986,120.2043,29.34,71,97,7.98,PH,1735531441
397,avenal,36.0041,-120.129,10.87,86,15,3.66,US,1735531442
398,xinqing,48.2333,129.5,-10.2,67,86,0.47,CN,1735531443
399,nasiriyah,31.0521,46.261,11.41,39,66,2.09,IQ,1735531445
400,mar del plata,-38.0023,-57.5575,17.27,81,0,2.06,AR,1735531446
401,pisco,-13.7,-76.2167,20.03,83,0,4.12,PE,1735531436
402,muroto-misakicho,33.2833,134.15,10.5,49,100,3.12,JP,1735531448
403,abra pampa,-22.7205,-65.697,11.65,62,99,4.41,AR,1735531450
404,la'ie,21.6477,-157.9253,23.95,83,14,1.79,US,1735531451
405,okhotsk,59.3833,143.3,-29.08,77,1,6.52,RU,1735531452
406,pakokku,21.3333,95.1,25.46,54,0,3.57,MM,1735531453
407,nkove,-7.95,30.85,21.76,81,93,1.88,TZ,1735531455
408,garachico,28.7781,-17.7646,15.27,77,0,3.6,ES,1735531456
409,namie,37.4833,141.0,10.55,42,2,3.66,JP,1735531457
410,taunggyi,20.7833,97.0333,22.37,52,0,1.14,MM,1735531458
411,portland,45.5234,-122.6762,7.04,94,100,1.79,US,1735531339
412,kili,5.6439,169.1211,28.26,70,90,7.39,MH,1735531461
413,kolonia town,6.964,158.206,32.0,62,40,2.57,FM,1735531462
414,pontevedra,42.431,-8.6444,7.3,88,2,1.81,ES,1735531464
415,revda,56.801,59.9303,-10.79,93,98,3.27,RU,1735531467
416,harper,4.375,-7.7169,26.03,84,4,2.13,LR,1735531468
417,inirida,3.8653,-67.9239,23.04,98,98,0.85,CO,1735531469
418,carnot,4.9409,15.8665,20.75,38,48,1.17,CF,1735531470
419,pangody,65.85,74.4859,-20.4,100,99,3.14,RU,1735531472
420,palmer,42.1584,-72.3287,13.08,92,96,4.76,US,1735531473
421,port augusta,-32.5,137.7667,31.42,24,66,6.29,AU,1735531474
422,weno,7.4515,151.8468,27.99,82,100,8.51,FM,1735531476
423,saudarkrokur,65.7461,-19.6394,-11.03,85,100,2.42,IS,1735531477
424,kudahuvadhoo,2.6708,72.8944,27.01,71,71,1.21,MV,1735531478
425,tamayong,7.1331,125.3797,25.55,84,97,1.42,PH,1735531479
426,tromso,69.6496,18.957,1.01,75,75,12.86,NO,1735531480
427,mandera,3.9366,41.867,24.93,46,25,3.89,KE,1735531482
428,chatra,24.2167,84.8667,19.96,54,0,3.15,IN,1735531483
429,onega,63.9061,38.1404,-1.38,89,61,3.86,RU,1735531484
430,lamia,38.9,22.4333,5.62,76,5,0.45,GR,1735531485
431,poronaysk,49.2167,143.1167,-16.06,84,22,1.88,RU,1735531487
432,susuman,62.7833,148.1667,-28.47,93,100,1.59,RU,1735531488
433,ghadamis,30.1337,9.5007,8.08,61,1,4.78,LY,1735531489
434,mariakani,-3.8633,39.4736,25.05,89,97,1.91,KE,1735531492
435,al kharijah,25.4514,30.5464,10.13,57,71,2.67,EG,1735531493
436,ojinaga,29.5667,-104.4167,13.53,24,0,3.09,MX,1735531494
437,qutqashen,40.9814,47.8458,2.11,97,100,0.37,AZ,1735531496
438,vallenar,-28.5708,-70.7581,19.78,67,0,1.21,CL,1735531497
439,kirensk,57.7853,108.1119,-7.78,94,100,3.99,RU,1735531498
440,port douglas,-16.4833,145.4667,29.18,71,99,3.44,AU,1735531499
441,la sarre,48.8002,-79.1996,1.09,100,100,3.91,CA,1735531501
442,klyuchi,52.2667,79.1667,-15.36,98,95,2.6,RU,1735531502
443,baardheere,2.3446,42.2764,24.12,71,12,4.15,SO,1735531406
444,gizo,-8.103,156.8419,29.51,71,42,2.44,SB,1735531504
445,vorkuta,67.5,64.0,-7.47,95,99,5.35,RU,1735531359
446,pala,9.3642,14.9046,19.57,23,71,2.07,TD,1735531507
447,villa regina,-39.1,-67.0667,24.43,23,68,10.38,AR,1735531509
448,palu,-0.8917,119.8707,33.84,51,64,2.8,ID,1735531511
449,lahad datu,5.0268,118.327,29.06,70,68,2.22,MY,1735531512
450,pokrovsk,48.282,37.1758,-0.84,77,80,2.28,UA,1735531513
451,oranjemund,-28.55,16.4333,15.79,88,75,0.69,NA,1735531515
452,springfield,37.2153,-93.2982,7.71,93,70,1.34,US,1735531233
453,angaur state,6.906,134.13,27.95,78,100,5.19,PW,1735531517
454,nakambala,-15.8324,27.7799,20.1,95,100,3.4,ZM,1735531518
455,bad breisig,50.5167,7.2667,-1.05,97,46,1.5,DE,1735531520
456,gimcheon,36.1218,128.1198,3.62,65,100,0.51,KR,1735531390
457,willowmore,-33.2926,23.4895,20.5,77,100,1.66,ZA,1735531522
458,belmonte,-15.8631,-38.8828,25.03,83,100,4.19,BR,1735531523
459,kyzyl-suu,42.3414,78.0056,-2.86,69,99,1.95,KG,1735531525
460,sos'va,59.1766,61.8558,-6.49,89,83,4.12,RU,1735531526
461,ulladulla,-35.35,150.4667,24.32,58,0,8.36,AU,1735531527
462,luwuk,-0.9516,122.7875,28.53,68,43,1.79,ID,1735531529
463,ciudad lazaro cardenas,17.9583,-102.2,21.71,83,0,1.95,MX,1735531530
464,isangel,-19.55,169.2667,29.06,65,75,2.57,VU,1735531531
465,minot,48.2325,-101.2963,-10.88,92,0,1.54,US,1735531532
466,gingee,12.25,79.4167,25.32,77,93,6.45,IN,1735531534
467,west memphis,35.1465,-90.1845,11.86,84,0,3.09,US,1735531535
468,thunder bay,48.4001,-89.3168,-0.01,100,100,2.06,CA,1735531484
469,namibe,-15.1961,12.1522,22.37,75,100,1.82,AO,1735531537
470,qoryooley,1.7878,44.53,23.9,80,29,6.03,SO,1735531539
471,taroa,8.7058,171.2275,27.48,75,49,8.86,MH,1735531540
472,pendleton,45.6721,-118.7886,6.16,75,49,4.02,US,1735531541
473,torrington,41.8007,-73.1212,12.46,95,100,3.58,US,1735531542
474,petropavlovsk-kamchatsky,53.0452,158.6483,-1.67,37,40,6.0,RU,1735531340
475,santa marta,11.2408,-74.199,27.72,73,20,2.68,CO,1735531546
476,al hazm,16.1641,44.7769,15.27,35,0,0.7,YE,1735531547
477,maumere,-8.6199,122.2111,27.58,84,93,1.42,ID,1735531548
478,mokhsogollokh,61.4681,128.9203,-41.6,100,92,0.8,RU,1735531550
479,chu,43.5983,73.7614,0.12,76,100,3.47,KZ,1735531551
480,pasuquin,18.3328,120.6177,29.97,70,40,4.63,PH,1735531552
481,kailua-kona,19.6406,-155.9956,25.98,79,0,5.14,US,1735531553
482,nizhniy kuranakh,58.8353,125.4869,-20.71,97,100,0.6,RU,1735531555
483,wynyard,-41.0,145.7167,16.22,92,100,2.24,AU,1735531556
484,gaiman,-43.2897,-65.4929,17.11,82,36,9.11,AR,1735531557
485,nemuro,43.3236,145.575,-3.64,58,28,7.97,JP,1735531558
486,alofi,-19.0595,-169.9187,27.94,65,20,3.6,NU,1735531560
487,raduzhny,62.0961,77.475,-19.78,100,70,2.54,RU,1735531561
488,st. john's,47.5649,-52.7093,-0.51,94,75,1.54,CA,1735531563
489,salinas,36.6777,-121.6555,13.29,96,100,2.57,US,1735531540
490,cuddapah,14.4667,78.8167,23.0,73,20,0.0,IN,1735531567
491,kiama,-34.6833,150.8667,25.88,67,0,4.02,AU,1735531568
492,nicoya,10.1483,-85.452,22.6,98,100,1.17,CR,1735531291
493,centerville,39.6284,-84.1594,6.69,86,100,4.92,US,1735531535
494,fort bragg,35.139,-79.006,14.91,95,100,5.66,US,1735531446
495,formosa do rio preto,-11.0483,-45.1931,24.6,53,93,0.51,BR,1735531573
496,nasirabad,26.3,74.7333,13.56,51,0,0.7,IN,1735531574
497,saint croix,17.7397,-64.7388,23.31,66,40,2.06,VI,1735531576
498,lethem,3.3803,-59.7968,25.85,69,60,4.21,GY,1735531577
499,porto murtinho,-21.6989,-57.8825,21.81,47,0,1.62,BR,1735531578
500,al mijlad,11.0333,27.7333,18.57,18,0,7.09,SD,1735531579
501,sao vicente,-23.9631,-46.3919,23.32,26,93,3.49,BR,1735531322
502,callao,-12.0667,-77.15,22.07,83,40,7.72,PE,1735531582
503,opuwo,-18.0607,13.84,20.31,32,46,0.57,NA,1735531586
504,sheridan,44.8333,-106.9173,4.67,71,100,3.09,US,1735531587
505,ad dilam,23.9915,47.1627,17.05,46,50,3.81,SA,1735531589
506,kununurra,-15.7667,128.7333,35.99,56,32,2.57,AU,1735531590
507,fartura,-23.3883,-49.51,20.37,89,59,4.66,BR,1735531591
508,somerset,40.5668,-74.5496,16.43,85,100,5.14,US,1735531330
509,dvubratskiy,45.2389,39.805,0.77,79,99,2.15,RU,1735531594
510,sao gabriel da cachoeira,-0.1303,-67.0892,22.33,100,96,0.82,BR,1735531595
511,savanna-la-mar,18.219,-78.1332,23.29,93,95,0.75,JM,1735531596
512,fort mcmurray,56.7268,-111.381,-8.23,86,100,4.12,CA,1735531598
513,n'zeto,-7.2312,12.8666,26.28,89,100,2.95,AO,1735531599
514,vanino,49.0869,140.2543,-13.93,61,5,1.85,RU,1735531600
515,kem',64.9555,34.5793,-0.98,80,44,5.92,RU,1735531602
516,al jawf,29.5,38.75,6.0,58,0,3.9,SA,1735531603
517,strugi-krasnyye,58.2675,29.1114,5.01,83,100,7.47,RU,1735531604
518,cabedelo,-6.9811,-34.8339,26.37,83,20,4.55,BR,1735531355
519,ta`u,-14.2336,-169.5144,28.82,68,23,2.79,AS,1735531608
520,palapag,12.5458,125.1147,28.13,82,78,4.52,PH,1735531609
521,walvis bay,-22.9575,14.5053,17.83,76,85,4.37,NA,1735531437
522,bundaberg north,-24.8551,152.3425,29.29,54,62,4.65,AU,1735531612
523,berezovyy,51.6667,135.7,-19.11,81,66,1.16,RU,1735531613
524,hunucma,21.0167,-89.8667,24.49,98,97,1.36,MX,1735531614
525,kapa'a,22.0752,-159.319,23.18,84,75,6.69,US,1735531615
526,karratha,-20.7377,116.8463,36.52,41,98,3.95,AU,1735531617
527,bandar-e lengeh,26.5579,54.8807,21.77,54,99,1.78,IR,1735531607
528,puerto baquerizo moreno,-0.9,-89.6,23.0,86,21,3.27,EC,1735531329
529,champerico,14.3,-91.9167,25.9,79,92,2.61,GT,1735531621
530,tres arroyos,-38.3739,-60.2798,18.43,72,100,2.34,AR,1735531623
531,siverek,37.755,39.3167,4.77,87,100,5.2,TR,1735531586
532,neryungri,56.6709,124.6491,-18.52,98,95,0.73,RU,1735531625
533,livingstone,-17.8419,25.8543,20.49,93,100,1.12,ZM,1735531626
534,villa de cos,23.2833,-102.35,12.72,20,4,2.43,MX,1735531628
535,inari,68.906,27.0288,-2.97,73,100,6.83,FI,1735531629
536,dhidhdhoo,6.8833,73.1,28.13,74,41,5.12,MV,1735531630
537,yokohama,35.4478,139.6425,11.14,46,75,3.6,JP,1735531572
538,benesov,49.7816,14.687,-2.16,88,1,2.39,CZ,1735531633
539,ishigaki,24.3448,124.1572,20.55,72,100,4.86,JP,1735531634
540,morogoro,-6.8167,37.6667,23.1,89,100,1.52,TZ,1735531635
541,parabel',58.6978,81.4825,-8.61,93,100,3.83,RU,1735531636
542,kupang,-10.1667,123.5833,31.32,74,20,1.03,ID,1735531402
543,ad dawadimi,24.5077,44.3924,16.64,39,100,5.24,SA,1735531639
544,punta alta,-38.8759,-62.0736,21.77,67,11,5.08,AR,1735531640
545,springs,-26.25,28.4,19.81,98,52,1.74,ZA,1735531641
546,nogliki,51.8333,143.1667,-16.02,85,25,5.05,RU,1735531643
547,chipata,-13.6333,32.65,19.63,88,100,1.24,ZM,1735531644
548,shenjiamen,29.9576,122.298,11.24,63,5,4.04,CN,1735531645
549,soria,41.6667,-2.6667,-1.6,68,0,1.64,ES,1735531647
550,hammerfest,70.6634,23.6821,0.25,100,100,7.2,NO,1735531648
551,crucecita,-28.95,-58.9833,20.76,60,0,3.01,AR,1735531649
552,ximeicun,24.9639,118.3794,19.61,37,0,1.09,CN,1735531650
553,minas de marcona,-15.2119,-75.1103,16.01,84,100,4.75,PE,1735531652
554,boke,10.9409,-14.2967,19.43,87,0,0.37,GN,1735531653
555,barmer,25.75,71.3833,15.11,38,2,3.62,IN,1735531654
556,benxi,41.2886,123.765,-0.87,51,6,2.79,CN,1735531655
557,puerto rosario,-24.45,-57.0833,20.27,59,0,1.88,PY,1735531657
558,akranes,64.3218,-22.0749,-2.62,36,97,6.89,IS,1735531658
559,el jadid,33.2549,-8.506,13.02,83,5,3.56,MA,1735531659
560,lata,40.1629,-8.3327,3.54,84,1,1.71,PT,1735531660
561,toliara,-23.35,43.6667,27.21,75,38,0.91,MG,1735531661
562,asau,46.4333,26.4,-0.07,86,20,3.07,RO,1735531663
563,soroa,22.7939,-83.0078,20.73,93,100,0.52,CU,1735531664
564,masaurhi buzurg,25.35,85.0333,18.94,57,0,3.83,IN,1735531431
565,plettenberg bay,-34.0527,23.3716,20.39,91,63,2.04,ZA,1735531666
566,thames,-37.1333,175.5333,18.93,81,61,4.19,NZ,1735531668
567,chos malal,-37.3781,-70.2709,20.47,29,1,2.73,AR,1735531669
568,usakos,-22.0,15.6,22.11,30,95,1.47,NA,1735531670
569,waat,51.1454,6.4958,2.09,98,100,4.12,DE,1735531671
570,chenzhou,25.8,113.0333,17.02,29,0,2.04,CN,1735531457
571,namtsy,62.7161,129.6658,-45.73,100,78,0.98,RU,1735531674
572,sarina,-21.4333,149.2167,31.82,1,7,3.85,AU,1735531675
573,alaghsas,17.0187,8.0168,16.11,19,1,5.8,NE,1735531676
574,katsuura,35.1333,140.3,9.51,44,100,1.92,JP,1735531678
575,comodoro rivadavia,-45.8667,-67.5,16.92,82,20,1.54,AR,1735531433
576,banda aceh,5.5577,95.3222,26.39,86,100,5.42,ID,1735531680
577,moapa valley,36.5805,-114.4703,9.77,48,2,0.92,US,1735531681
578,quimili,-27.6333,-62.4167,22.03,45,24,4.59,AR,1735531683
579,sola,-13.8833,167.55,26.61,82,100,5.87,VU,1735531684
580,williamsburg,37.2707,-76.7075,15.41,85,75,2.57,US,1735531415
